[{"Id":0,"UserId":0,"Title":"fun event","City":"Huntington","State":"WV","Zip":25701,"Latitude":38.398780302939343,"Longitude":-82.456717644030888,"Date":"\/Date(1618718400000)\/","Venue":"CTC","Description":"Church Service"},{"Id":1,"UserId":0,"Title":"Craft Festival","City":"Huntington","State":"WV","Zip":25504,"Latitude":38.389684864021369,"Longitude":-82.301446167033475,"Date":"\/Date(1620014400000)\/","Venue":"Barboursville Park","Description":"Festival of crafts"},{"Id":2,"UserId":1,"Title":"Country Concert","City":"Charleston","State":"WV","Zip":25302,"Latitude":38.356135204408439,"Longitude":-81.639988372867549,"Date":"\/Date(1618977600000)\/","Venue":"Charleston Civic Center","Description":"Local Country Concert"},{"Id":3,"UserId":2,"Title":"Play","City":"Ashland","State":"KY","Zip":41101,"Latitude":38.480311047866515,"Longitude":-82.642870032388473,"Date":"\/Date(1626062400000)\/","Venue":"Paramount","Description":"Wicked the play"},{"Id":4,"UserId":3,"Title":"State Fair","City":"Ashland","State":"KY","Zip":41101,"Latitude":38.482217195623413,"Longitude":-82.639061320804146,"Date":"\/Date(1618718400000)\/","Venue":"Ashland Riverfront","Description":"State Fair"},{"Id":5,"UserId":3,"Title":"Yoga in the park","City":"Huntington","State":"WV","Zip":25705,"Latitude":38.407348161450884,"Longitude":-82.438014544030736,"Date":"\/Date(1620014400000)\/","Venue":"Ritter Park","Description":"Yoga"},{"Id":6,"UserId":3,"Title":"Baseball Game","City":"Charleston","State":"WV","Zip":25302,"Latitude":38.349245402247242,"Longitude":-81.624896288211374,"Date":"\/Date(1620446400000)\/","Venue":"Appalachian Power Park","Description":"Baseball Game"},{"Id":7,"UserId":4,"Title":"Pumpkin Festival","City":"Milton","State":"WV","Zip":25541,"Latitude":38.430538393986446,"Longitude":-82.131238161225269,"Date":"\/Date(1639026000000)\/","Venue":"CTC","Description":"WV Pumpkin Festival"},{"Id":1,"UserId":0,"Title":"Parade","City":"Huntington","State":"West Virginia","Zip":25703,"Latitude":38.421616669002738,"Longitude":-82.430891990661635,"Date":"\/Date(-62135535600000)\/","Venue":"Main Street","Description":"4th of July Parade"}]